[
  {
    "name": "Beijing Capital International Airport",
    "city": "Beijing",
    "country": "China",
    "iata": "PEK",
    "icao": "ZBAA",
    "lat": 40.0799,
    "lon": 116.6031
  },
  {
    "name": "Shanghai Pudong International Airport",
    "city": "Shanghai",
    "country": "China",
    "iata": "PVG",
    "icao": "ZSPD",
    "lat": 31.1434,
    "lon": 121.8052
  },
  {
    "name": "Hong Kong International Airport",
    "city": "Hong Kong",
    "country": "Hong Kong",
    "iata": "HKG",
    "icao": "VHHH",
    "lat": 22.3089,
    "lon": 113.9144
  },
  {
    "name": "Guangzhou Baiyun International Airport",
    "city": "Guangzhou",
    "country": "China",
    "iata": "CAN",
    "icao": "ZGGG",
    "lat": 23.3924,
    "lon": 113.299
  },
  {
    "name": "Chengdu Shuangliu International Airport",
    "city": "Chengdu",
    "country": "China",
    "iata": "CTU",
    "icao": "ZUUU",
    "lat": 30.5785,
    "lon": 103.9471
  },
  {
    "name": "Tokyo Narita International Airport",
    "city": "Tokyo",
    "country": "Japan",
    "iata": "NRT",
    "icao": "RJAA",
    "lat": 35.7653,
    "lon": 140.3864
  },
  {
    "name": "Tokyo Haneda Airport",
    "city": "Tokyo",
    "country": "Japan",
    "iata": "HND",
    "icao": "RJTT",
    "lat": 35.5533,
    "lon": 139.7811
  },
  {
    "name": "Osaka Kansai International Airport",
    "city": "Osaka",
    "country": "Japan",
    "iata": "KIX",
    "icao": "RJBB",
    "lat": 34.4273,
    "lon": 135.244
  },
  {
    "name": "Incheon International Airport",
    "city": "Seoul",
    "country": "South Korea",
    "iata": "ICN",
    "icao": "RKSI",
    "lat": 37.4691,
    "lon": 126.4505
  },
  {
    "name": "Singapore Changi Airport",
    "city": "Singapore",
    "country": "Singapore",
    "iata": "SIN",
    "icao": "WSSS",
    "lat": 1.3644,
    "lon": 103.9915
  },
  {
    "name": "Kuala Lumpur International Airport",
    "city": "Kuala Lumpur",
    "country": "Malaysia",
    "iata": "KUL",
    "icao": "WMKK",
    "lat": 2.7456,
    "lon": 101.71
  },
  {
    "name": "Suvarnabhumi Airport",
    "city": "Bangkok",
    "country": "Thailand",
    "iata": "BKK",
    "icao": "VTBS",
    "lat": 13.6811,
    "lon": 100.7472
  },
  {
    "name": "Tan Son Nhat International Airport",
    "city": "Ho Chi Minh City",
    "country": "Vietnam",
    "iata": "SGN",
    "icao": "VVTS",
    "lat": 10.8188,
    "lon": 106.6519
  },
  {
    "name": "Noi Bai International Airport",
    "city": "Hanoi",
    "country": "Vietnam",
    "iata": "HAN",
    "icao": "VVNB",
    "lat": 21.2212,
    "lon": 105.807
  },
  {
    "name": "Indira Gandhi International Airport",
    "city": "New Delhi",
    "country": "India",
    "iata": "DEL",
    "icao": "VIDP",
    "lat": 28.5562,
    "lon": 77.1
  },
  {
    "name": "Chhatrapati Shivaji Maharaj International Airport",
    "city": "Mumbai",
    "country": "India",
    "iata": "BOM",
    "icao": "VABB",
    "lat": 19.0896,
    "lon": 72.8656
  },
  {
    "name": "Ninoy Aquino International Airport",
    "city": "Manila",
    "country": "Philippines",
    "iata": "MNL",
    "icao": "RPLL",
    "lat": 14.5086,
    "lon": 121.0194
  },
  {
    "name": "Soekarno-Hatta International Airport",
    "city": "Jakarta",
    "country": "Indonesia",
    "iata": "CGK",
    "icao": "WIII",
    "lat": -6.1256,
    "lon": 106.6558
  },
  {
    "name": "Ngurah Rai International Airport",
    "city": "Bali",
    "country": "Indonesia",
    "iata": "DPS",
    "icao": "WADD",
    "lat": -8.7482,
    "lon": 115.1672
  },
  {
    "name": "Taiwan Taoyuan International Airport",
    "city": "Taipei",
    "country": "Taiwan",
    "iata": "TPE",
    "icao": "RCTP",
    "lat": 25.0777,
    "lon": 121.233
  },
  {
    "name": "Dubai International Airport",
    "city": "Dubai",
    "country": "United Arab Emirates",
    "iata": "DXB",
    "icao": "OMDB",
    "lat": 25.2528,
    "lon": 55.3644
  },
  {
    "name": "Abu Dhabi International Airport",
    "city": "Abu Dhabi",
    "country": "United Arab Emirates",
    "iata": "AUH",
    "icao": "OMAA",
    "lat": 24.4331,
    "lon": 54.6511
  },
  {
    "name": "Hamad International Airport",
    "city": "Doha",
    "country": "Qatar",
    "iata": "DOH",
    "icao": "OTHH",
    "lat": 25.2731,
    "lon": 51.6081
  },
  {
    "name": "King Abdulaziz International Airport",
    "city": "Jeddah",
    "country": "Saudi Arabia",
    "iata": "JED",
    "icao": "OEJN",
    "lat": 21.6796,
    "lon": 39.1565
  },
  {
    "name": "Ben Gurion Airport",
    "city": "Tel Aviv",
    "country": "Israel",
    "iata": "TLV",
    "icao": "LLBG",
    "lat": 32.0114,
    "lon": 34.8867
  },
  {
    "name": "Istanbul Airport",
    "city": "Istanbul",
    "country": "Turkey",
    "iata": "IST",
    "icao": "LTFM",
    "lat": 41.2753,
    "lon": 28.7519
  },
  {
    "name": "London Heathrow Airport",
    "city": "London",
    "country": "United Kingdom",
    "iata": "LHR",
    "icao": "EGLL",
    "lat": 51.47,
    "lon": -0.4543
  },
  {
    "name": "London Gatwick Airport",
    "city": "London",
    "country": "United Kingdom",
    "iata": "LGW",
    "icao": "EGKK",
    "lat": 51.1481,
    "lon": -0.1903
  },
  {
    "name": "Paris Charles de Gaulle Airport",
    "city": "Paris",
    "country": "France",
    "iata": "CDG",
    "icao": "LFPG",
    "lat": 49.0128,
    "lon": 2.55
  },
  {
    "name": "Paris Orly Airport",
    "city": "Paris",
    "country": "France",
    "iata": "ORY",
    "icao": "LFPO",
    "lat": 48.7233,
    "lon": 2.3794
  },
  {
    "name": "Frankfurt Airport",
    "city": "Frankfurt",
    "country": "Germany",
    "iata": "FRA",
    "icao": "EDDF",
    "lat": 50.0264,
    "lon": 8.5431
  },
  {
    "name": "Munich Airport",
    "city": "Munich",
    "country": "Germany",
    "iata": "MUC",
    "icao": "EDDM",
    "lat": 48.3538,
    "lon": 11.775
  },
  {
    "name": "Berlin Brandenburg Airport",
    "city": "Berlin",
    "country": "Germany",
    "iata": "BER",
    "icao": "EDDB",
    "lat": 52.3667,
    "lon": 13.5033
  },
  {
    "name": "Amsterdam Airport Schiphol",
    "city": "Amsterdam",
    "country": "Netherlands",
    "iata": "AMS",
    "icao": "EHAM",
    "lat": 52.3086,
    "lon": 4.7639
  },
  {
    "name": "Brussels Airport",
    "city": "Brussels",
    "country": "Belgium",
    "iata": "BRU",
    "icao": "EBBR",
    "lat": 50.9014,
    "lon": 4.4844
  },
  {
    "name": "Zurich Airport",
    "city": "Zurich",
    "country": "Switzerland",
    "iata": "ZRH",
    "icao": "LSZH",
    "lat": 47.4647,
    "lon": 8.5492
  },
  {
    "name": "Vienna International Airport",
    "city": "Vienna",
    "country": "Austria",
    "iata": "VIE",
    "icao": "LOWW",
    "lat": 48.1103,
    "lon": 16.5697
  },
  {
    "name": "Madrid-Barajas Adolfo Suárez Airport",
    "city": "Madrid",
    "country": "Spain",
    "iata": "MAD",
    "icao": "LEMD",
    "lat": 40.4722,
    "lon": -3.5608
  },
  {
    "name": "Barcelona-El Prat Airport",
    "city": "Barcelona",
    "country": "Spain",
    "iata": "BCN",
    "icao": "LEBL",
    "lat": 41.2971,
    "lon": 2.0785
  },
  {
    "name": "Lisbon Humberto Delgado Airport",
    "city": "Lisbon",
    "country": "Portugal",
    "iata": "LIS",
    "icao": "LPPT",
    "lat": 38.7813,
    "lon": -9.1359
  },
  {
    "name": "Leonardo da Vinci–Fiumicino Airport",
    "city": "Rome",
    "country": "Italy",
    "iata": "FCO",
    "icao": "LIRF",
    "lat": 41.8003,
    "lon": 12.2389
  },
  {
    "name": "Milan Malpensa Airport",
    "city": "Milan",
    "country": "Italy",
    "iata": "MXP",
    "icao": "LIMC",
    "lat": 45.63,
    "lon": 8.7231
  },
  {
    "name": "Copenhagen Airport",
    "city": "Copenhagen",
    "country": "Denmark",
    "iata": "CPH",
    "icao": "EKCH",
    "lat": 55.6181,
    "lon": 12.6561
  },
  {
    "name": "Stockholm Arlanda Airport",
    "city": "Stockholm",
    "country": "Sweden",
    "iata": "ARN",
    "icao": "ESSA",
    "lat": 59.6519,
    "lon": 17.9186
  },
  {
    "name": "Oslo Gardermoen Airport",
    "city": "Oslo",
    "country": "Norway",
    "iata": "OSL",
    "icao": "ENGM",
    "lat": 60.1939,
    "lon": 11.1004
  },
  {
    "name": "Helsinki-Vantaa Airport",
    "city": "Helsinki",
    "country": "Finland",
    "iata": "HEL",
    "icao": "EFHK",
    "lat": 60.3172,
    "lon": 24.9633
  },
  {
    "name": "Dublin Airport",
    "city": "Dublin",
    "country": "Ireland",
    "iata": "DUB",
    "icao": "EIDW",
    "lat": 53.4213,
    "lon": -6.2701
  },
  {
    "name": "Athens International Airport",
    "city": "Athens",
    "country": "Greece",
    "iata": "ATH",
    "icao": "LGAV",
    "lat": 37.9364,
    "lon": 23.9445
  },
  {
    "name": "Warsaw Chopin Airport",
    "city": "Warsaw",
    "country": "Poland",
    "iata": "WAW",
    "icao": "EPWA",
    "lat": 52.1657,
    "lon": 20.9671
  },
  {
    "name": "Prague Václav Havel Airport",
    "city": "Prague",
    "country": "Czech Republic",
    "iata": "PRG",
    "icao": "LKPR",
    "lat": 50.1008,
    "lon": 14.26
  },
  {
    "name": "Budapest Ferenc Liszt International Airport",
    "city": "Budapest",
    "country": "Hungary",
    "iata": "BUD",
    "icao": "LHBP",
    "lat": 47.4369,
    "lon": 19.2556
  },
  {
    "name": "Moscow Sheremetyevo International Airport",
    "city": "Moscow",
    "country": "Russia",
    "iata": "SVO",
    "icao": "UUEE",
    "lat": 55.9726,
    "lon": 37.4146
  },
  {
    "name": "Moscow Domodedovo Airport",
    "city": "Moscow",
    "country": "Russia",
    "iata": "DME",
    "icao": "UUDD",
    "lat": 55.4088,
    "lon": 37.9063
  },
  {
    "name": "John F. Kennedy International Airport",
    "city": "New York",
    "country": "United States",
    "iata": "JFK",
    "icao": "KJFK",
    "lat": 40.6413,
    "lon": -73.7781
  },
  {
    "name": "Newark Liberty International Airport",
    "city": "Newark",
    "country": "United States",
    "iata": "EWR",
    "icao": "KEWR",
    "lat": 40.6895,
    "lon": -74.1745
  },
  {
    "name": "Los Angeles International Airport",
    "city": "Los Angeles",
    "country": "United States",
    "iata": "LAX",
    "icao": "KLAX",
    "lat": 33.9425,
    "lon": -118.408
  },
  {
    "name": "San Francisco International Airport",
    "city": "San Francisco",
    "country": "United States",
    "iata": "SFO",
    "icao": "KSFO",
    "lat": 37.6213,
    "lon": -122.379
  },
  {
    "name": "Chicago O'Hare International Airport",
    "city": "Chicago",
    "country": "United States",
    "iata": "ORD",
    "icao": "KORD",
    "lat": 41.9742,
    "lon": -87.9073
  },
  {
    "name": "Dallas/Fort Worth International Airport",
    "city": "Dallas",
    "country": "United States",
    "iata": "DFW",
    "icao": "KDFW",
    "lat": 32.8998,
    "lon": -97.0403
  },
  {
    "name": "Denver International Airport",
    "city": "Denver",
    "country": "United States",
    "iata": "DEN",
    "icao": "KDEN",
    "lat": 39.8561,
    "lon": -104.6737
  },
  {
    "name": "Seattle-Tacoma International Airport",
    "city": "Seattle",
    "country": "United States",
    "iata": "SEA",
    "icao": "KSEA",
    "lat": 47.4502,
    "lon": -122.3088
  },
  {
    "name": "Miami International Airport",
    "city": "Miami",
    "country": "United States",
    "iata": "MIA",
    "icao": "KMIA",
    "lat": 25.7959,
    "lon": -80.287
  },
  {
    "name": "Atlanta Hartsfield-Jackson International Airport",
    "city": "Atlanta",
    "country": "United States",
    "iata": "ATL",
    "icao": "KATL",
    "lat": 33.6407,
    "lon": -84.4277
  },
  {
    "name": "Boston Logan International Airport",
    "city": "Boston",
    "country": "United States",
    "iata": "BOS",
    "icao": "KBOS",
    "lat": 42.3656,
    "lon": -71.0096
  },
  {
    "name": "Washington Dulles International Airport",
    "city": "Washington D.C.",
    "country": "United States",
    "iata": "IAD",
    "icao": "KIAD",
    "lat": 38.9531,
    "lon": -77.4565
  },
  {
    "name": "Phoenix Sky Harbor International Airport",
    "city": "Phoenix",
    "country": "United States",
    "iata": "PHX",
    "icao": "KPHX",
    "lat": 33.4373,
    "lon": -112.0078
  },
  {
    "name": "Las Vegas Harry Reid International Airport",
    "city": "Las Vegas",
    "country": "United States",
    "iata": "LAS",
    "icao": "KLAS",
    "lat": 36.0801,
    "lon": -115.1523
  },
  {
    "name": "Honolulu Daniel K. Inouye International Airport",
    "city": "Honolulu",
    "country": "United States",
    "iata": "HNL",
    "icao": "PHNL",
    "lat": 21.3187,
    "lon": -157.9225
  },
  {
    "name": "Toronto Pearson International Airport",
    "city": "Toronto",
    "country": "Canada",
    "iata": "YYZ",
    "icao": "CYYZ",
    "lat": 43.6772,
    "lon": -79.6306
  },
  {
    "name": "Vancouver International Airport",
    "city": "Vancouver",
    "country": "Canada",
    "iata": "YVR",
    "icao": "CYVR",
    "lat": 49.1967,
    "lon": -123.1815
  },
  {
    "name": "Montreal-Pierre Elliott Trudeau International Airport",
    "city": "Montreal",
    "country": "Canada",
    "iata": "YUL",
    "icao": "CYUL",
    "lat": 45.4706,
    "lon": -73.7408
  },
  {
    "name": "Calgary International Airport",
    "city": "Calgary",
    "country": "Canada",
    "iata": "YYC",
    "icao": "CYYC",
    "lat": 51.1225,
    "lon": -114.0133
  },
  {
    "name": "Mexico City International Airport",
    "city": "Mexico City",
    "country": "Mexico",
    "iata": "MEX",
    "icao": "MMMX",
    "lat": 19.4361,
    "lon": -99.0719
  },
  {
    "name": "Cancún International Airport",
    "city": "Cancún",
    "country": "Mexico",
    "iata": "CUN",
    "icao": "MMUN",
    "lat": 21.0365,
    "lon": -86.8771
  },
  {
    "name": "São Paulo–Guarulhos International Airport",
    "city": "São Paulo",
    "country": "Brazil",
    "iata": "GRU",
    "icao": "SBGR",
    "lat": -23.4356,
    "lon": -46.4731
  },
  {
    "name": "Rio de Janeiro–Galeão International Airport",
    "city": "Rio de Janeiro",
    "country": "Brazil",
    "iata": "GIG",
    "icao": "SBGL",
    "lat": -22.8099,
    "lon": -43.2506
  },
  {
    "name": "Buenos Aires Ministro Pistarini International Airport",
    "city": "Buenos Aires",
    "country": "Argentina",
    "iata": "EZE",
    "icao": "SAEZ",
    "lat": -34.8222,
    "lon": -58.5358
  },
  {
    "name": "Arturo Merino Benítez International Airport",
    "city": "Santiago",
    "country": "Chile",
    "iata": "SCL",
    "icao": "SCEL",
    "lat": -33.393,
    "lon": -70.7858
  },
  {
    "name": "Bogotá El Dorado International Airport",
    "city": "Bogotá",
    "country": "Colombia",
    "iata": "BOG",
    "icao": "SKBO",
    "lat": 4.7016,
    "lon": -74.1469
  },
  {
    "name": "Lima Jorge Chávez International Airport",
    "city": "Lima",
    "country": "Peru",
    "iata": "LIM",
    "icao": "SPJC",
    "lat": -12.0219,
    "lon": -77.1143
  },
  {
    "name": "Sydney Kingsford Smith Airport",
    "city": "Sydney",
    "country": "Australia",
    "iata": "SYD",
    "icao": "YSSY",
    "lat": -33.9399,
    "lon": 151.1753
  },
  {
    "name": "Melbourne Airport",
    "city": "Melbourne",
    "country": "Australia",
    "iata": "MEL",
    "icao": "YMML",
    "lat": -37.6733,
    "lon": 144.8433
  },
  {
    "name": "Brisbane Airport",
    "city": "Brisbane",
    "country": "Australia",
    "iata": "BNE",
    "icao": "YBBN",
    "lat": -27.3842,
    "lon": 153.1175
  },
  {
    "name": "Auckland Airport",
    "city": "Auckland",
    "country": "New Zealand",
    "iata": "AKL",
    "icao": "NZAA",
    "lat": -37.0082,
    "lon": 174.785
  },
  {
    "name": "Cape Town International Airport",
    "city": "Cape Town",
    "country": "South Africa",
    "iata": "CPT",
    "icao": "FACT",
    "lat": -33.9715,
    "lon": 18.6021
  },
  {
    "name": "O. R. Tambo International Airport",
    "city": "Johannesburg",
    "country": "South Africa",
    "iata": "JNB",
    "icao": "FAOR",
    "lat": -26.1367,
    "lon": 28.242
  },
  {
    "name": "Cairo International Airport",
    "city": "Cairo",
    "country": "Egypt",
    "iata": "CAI",
    "icao": "HECA",
    "lat": 30.1219,
    "lon": 31.4056
  },
  {
    "name": "Mohammed V International Airport",
    "city": "Casablanca",
    "country": "Morocco",
    "iata": "CMN",
    "icao": "GMMN",
    "lat": 33.3675,
    "lon": -7.5897
  },
  {
    "name": "Jomo Kenyatta International Airport",
    "city": "Nairobi",
    "country": "Kenya",
    "iata": "NBO",
    "icao": "HKJK",
    "lat": -1.3192,
    "lon": 36.9278
  },
  {
    "name": "Murtala Muhammed International Airport",
    "city": "Lagos",
    "country": "Nigeria",
    "iata": "LOS",
    "icao": "DNMM",
    "lat": 6.5774,
    "lon": 3.3212
  },
  {
    "name": "Bole International Airport",
    "city": "Addis Ababa",
    "country": "Ethiopia",
    "iata": "ADD",
    "icao": "HAAB",
    "lat": 8.9778,
    "lon": 38.7994
  },
  {
    "name": "Shenzhen Bao'an International Airport",
    "city": "Shenzhen",
    "country": "China",
    "iata": "SZX",
    "icao": "ZGSZ",
    "lat": 22.6397,
    "lon": 113.8108
  },
  {
    "name": "Hangzhou Xiaoshan International Airport",
    "city": "Hangzhou",
    "country": "China",
    "iata": "HGH",
    "icao": "ZSHC",
    "lat": 30.2295,
    "lon": 120.4344
  },
  {
    "name": "Xi'an Xianyang International Airport",
    "city": "Xi'an",
    "country": "China",
    "iata": "XIY",
    "icao": "ZLXY",
    "lat": 34.4471,
    "lon": 108.7516
  },
  {
    "name": "Kunming Changshui International Airport",
    "city": "Kunming",
    "country": "China",
    "iata": "KMG",
    "icao": "ZPPP",
    "lat": 25.1022,
    "lon": 102.9294
  },
  {
    "name": "Wuhan Tianhe International Airport",
    "city": "Wuhan",
    "country": "China",
    "iata": "WUH",
    "icao": "ZHHH",
    "lat": 30.7838,
    "lon": 114.2081
  }
]
